City_ID,City,Lat,Lng,Max Temp,Humidity,Cloudiness,Wind Speed,Country,Date
0,codrington,-38.2667,141.9667,53.2,61,100,6.46,AU,1717885947
1,adamstown,-25.066,-130.1015,72.88,79,40,14.38,PN,1717885929
2,tatsunocho-tominaga,34.8667,134.55,68.07,89,100,8.23,JP,1717886035
3,as sulayyil,20.4607,45.5779,95.25,10,13,5.95,SA,1717886036
4,petropavlovsk-kamchatsky,53.0452,158.6483,54.19,63,75,14.0,RU,1717886037
5,puerto natales,-51.7236,-72.4875,33.96,94,99,5.55,CL,1717885927
6,zhanibek,49.4167,46.85,65.1,79,1,7.16,KZ,1717886040
7,waitangi,-43.9535,-176.5597,50.83,81,5,7.0,NZ,1717885927
8,yanam,16.7333,82.2167,80.2,87,59,2.44,IN,1717886042
9,palembang,-2.9167,104.7458,78.89,94,75,2.3,ID,1717886044
10,uturoa,-16.7333,-151.4333,79.83,77,68,7.07,PF,1717885944
11,yellowknife,62.456,-114.3525,59.52,49,75,11.01,CA,1717886046
12,udachny,66.4167,112.4,56.44,80,69,11.79,RU,1717886048
13,san luis,-33.295,-66.3356,61.65,70,100,5.28,AR,1717885994
14,port-aux-francais,-49.35,70.2167,42.75,96,100,28.34,TF,1717886050
15,zelenoborskiy,66.845,32.3622,45.91,86,84,4.03,RU,1717886052
16,maumere,-8.6199,122.2111,77.5,84,22,5.19,ID,1717886053
17,oamaru,-45.0784,170.9801,47.25,65,100,3.76,NZ,1717886054
18,gutao,37.2025,112.1781,73.27,31,30,1.54,CN,1717886055
19,frontera,26.9333,-101.45,96.89,38,29,5.01,MX,1717886057
20,mondlo,-27.983,30.7177,40.78,94,7,1.88,ZA,1717886058
21,aasiaat,68.7098,-52.8699,35.44,84,6,9.15,GL,1717885932
22,tralee,52.2704,-9.7026,49.64,73,37,7.2,IE,1717886060
23,santo antonio,-6.3106,-35.4789,74.7,89,98,8.77,BR,1717886062
24,new norfolk,-42.7826,147.0587,47.91,87,57,2.04,AU,1717885954
25,kone,-21.0595,164.8658,80.29,59,94,5.48,NC,1717885930
26,lupiro,-8.3833,36.6667,69.42,66,82,3.02,TZ,1717886065
27,whitehorse,60.7161,-135.0538,74.01,20,75,17.27,CA,1717885772
28,cozumel,20.5083,-86.9458,87.87,74,75,17.27,MX,1717885886
29,clinton,42.587,-82.9199,75.22,74,100,5.99,US,1717886069
30,kudat,6.8837,116.8477,76.93,94,100,2.3,MY,1717885935
31,la ronge,55.1001,-105.2842,50.25,62,100,11.5,CA,1717886071
32,rumoi,43.9344,141.6428,66.4,72,97,12.62,JP,1717886073
33,olovyannaya,50.95,115.5667,50.99,74,69,3.2,RU,1717886074
34,saint-philippe,-21.3585,55.7679,69.39,83,72,2.46,RE,1717886075
35,luderitz,-26.6481,15.1594,66.85,29,0,18.03,NA,1717885930
36,viedma,-40.8135,-62.9967,58.01,90,100,6.93,AR,1717886078
37,sisimiut,66.9395,-53.6735,37.49,93,56,6.53,GL,1717885946
38,afaahiti,-17.75,-149.2833,76.87,84,99,6.82,PF,1717886080
39,lebu,-37.6167,-73.65,53.28,95,100,16.08,CL,1717886081
40,bethel,41.3712,-73.414,77.36,49,20,8.05,US,1717886083
41,iqaluit,63.7506,-68.5145,35.33,64,75,12.66,CA,1717886084
42,kenai,60.5544,-151.2583,64.02,51,0,17.27,US,1717886085
43,edinburgh of the seven seas,-37.0676,-12.3116,61.52,89,100,32.3,SH,1717886086
44,arkhangel'sk,64.5401,40.5433,52.12,100,100,6.71,RU,1717885983
45,punta arenas,-53.15,-70.9167,30.31,86,0,3.44,CL,1717885887
46,grytviken,-54.2811,-36.5092,31.98,98,100,13.47,GS,1717886090
47,ola,59.5833,151.2833,41.14,90,100,10.0,RU,1717886091
48,margate,51.3813,1.3862,57.69,62,0,4.0,GB,1717885611
49,college,64.8569,-147.8028,80.58,23,40,16.11,US,1717885812
50,nadvoitsy,63.8667,34.3167,50.97,76,83,2.44,RU,1717885990
51,arar,30.9753,41.0381,87.82,11,0,0.0,SA,1717885952
52,georgetown,5.4112,100.3354,78.75,87,40,4.61,MY,1717886097
53,port mathurin,-19.6833,63.4167,75.16,79,26,19.24,MU,1717885928
54,brinkmann,-30.8659,-62.0374,72.99,73,100,12.37,AR,1717886100
55,pangody,65.85,74.4859,37.17,87,31,8.43,RU,1717885953
56,north battleford,52.7834,-108.2847,50.09,66,100,9.22,CA,1717886103
57,west island,-12.1568,96.8225,78.78,89,75,4.61,CC,1717886104
58,kingston,17.997,-76.7936,86.95,70,40,16.11,JM,1717885840
59,olonkinbyen,70.9221,-8.7187,32.02,93,68,15.43,SJ,1717885928
60,albany,42.6001,-73.9662,70.66,63,82,10.67,US,1717885931
61,ribeira grande,38.5167,-28.7,67.77,89,4,8.01,PT,1717886109
62,mingguang,32.7802,117.9638,79.93,51,97,5.39,CN,1717886110
63,mokhsogollokh,61.4681,128.9203,56.23,75,1,5.91,RU,1717886111
64,farafangana,-22.8167,47.8333,68.95,86,69,14.54,MG,1717886113
65,iskateley,67.6803,53.1512,35.02,86,81,5.99,RU,1717885930
66,kandyagash,49.4744,57.4233,63.52,79,25,8.95,KZ,1717886115
67,road town,18.4167,-64.6167,84.24,79,75,5.75,VG,1717886042
68,arraial do cabo,-22.9661,-42.0278,73.2,82,0,16.04,BR,1717885986
69,ilulissat,69.2167,-51.1,39.22,81,2,5.75,GL,1717885931
70,isangel,-19.55,169.2667,77.7,76,83,11.36,VU,1717886121
71,remire-montjoly,4.9167,-52.2667,84.24,79,0,4.61,GF,1717885962
72,klaksvik,62.2266,-6.589,47.32,88,96,21.23,FO,1717886124
73,jayapura,-2.5333,140.7,79.99,87,68,4.27,ID,1717885948
74,port alfred,-33.5906,26.891,58.21,75,64,6.31,ZA,1717885950
75,kijang,35.2442,129.2139,65.93,94,100,7.0,KR,1717886080
76,timbuktu,16.7735,-3.0074,99.73,24,64,9.35,ML,1717886129
77,saipan,15.1355,145.701,88.5,66,40,12.66,MP,1717885933
78,puerto ayora,-0.7393,-90.3518,78.76,95,95,7.92,EC,1717885946
79,metlili chaamba,32.2667,3.6333,97.74,12,40,9.22,DZ,1717886132
80,sitka,57.0531,-135.33,58.89,55,100,8.05,US,1717886134
81,fale old settlement,-9.3852,-171.2468,84.0,70,73,6.49,TK,1717885947
82,amahai,-3.3333,128.9167,78.66,88,100,6.85,ID,1717886136
83,ancud,-41.8697,-73.8203,54.45,84,100,20.29,CL,1717885900
84,tazovsky,67.4667,78.7,39.43,78,93,6.11,RU,1717885931
85,guerrero negro,27.9769,-114.0611,69.4,62,22,16.8,MX,1717886140
86,sona,45.4388,10.8255,72.95,85,20,2.3,IT,1717886141
87,port elizabeth,-33.918,25.5701,46.69,100,0,4.61,ZA,1717885945
88,laredo,27.5064,-99.5075,100.69,34,0,12.66,US,1717885822
89,kochenevo,55.0218,82.202,58.39,96,74,7.85,RU,1717885931
90,box elder,41.5005,-112.8764,71.85,52,0,4.43,US,1717886146
91,alofi,-19.0595,-169.9187,76.89,57,75,18.41,NU,1717886147
92,rincon,32.296,-81.2354,87.76,58,75,10.36,US,1717886148
93,callao,-12.0667,-77.15,72.72,77,75,11.5,PE,1717885949
94,weno,7.4515,151.8468,82.35,89,100,6.91,FM,1717885955
95,harper,4.375,-7.7169,78.69,83,81,7.29,LR,1717885942
96,hasaki,35.7333,140.8333,72.28,72,61,8.01,JP,1717886153
97,olinda,-8.0089,-34.8553,80.33,89,40,14.97,BR,1717885944
98,mazatlan,23.2167,-106.4167,85.96,71,40,9.22,MX,1717886156
99,hobyo,5.3505,48.5268,79.9,77,74,23.58,SO,1717886158
100,mhamid,29.82,-5.72,82.87,16,100,19.91,MA,1717886159
101,bokoro,12.3807,17.0568,89.83,34,99,8.66,TD,1717886160
102,nemuro,43.3236,145.575,52.99,92,100,15.05,JP,1717885931
103,bikenibeu village,1.3673,173.1241,84.16,77,40,4.61,KI,1717886163
104,qaqortoq,60.7167,-46.0333,39.31,97,100,4.0,GL,1717886164
105,isafjordur,66.0755,-23.124,37.45,85,93,6.82,IS,1717885940
106,blackmans bay,-43.0167,147.3167,46.72,90,48,1.01,AU,1717885928
107,dunedin,-45.8742,170.5036,45.81,95,100,5.01,NZ,1717885874
108,jutai,-5.1833,-68.9,79.95,75,98,2.51,BR,1717886169
109,margaret river,-33.95,115.0667,59.68,72,100,25.21,AU,1717885940
110,kaliua,-5.0606,31.7936,62.76,52,36,5.14,TZ,1717886172
111,poli,-3.3333,36.8,56.44,86,62,2.95,TZ,1717886173
112,cabo san lucas,22.8909,-109.9124,88.9,48,0,8.99,MX,1717885945
113,vorkuta,67.5,64.0,30.11,93,100,1.99,RU,1717885954
114,ashland,40.8167,-82.2665,76.03,67,25,8.59,US,1717886177
115,mili,6.0815,171.735,84.02,77,94,12.55,MH,1717886178
116,vila do maio,15.1333,-23.2167,75.99,84,18,11.9,CV,1717886179
117,avarua,-21.2078,-159.775,75.25,57,40,8.05,CK,1717885931
118,sterling,39.0062,-77.4286,85.59,42,75,6.91,US,1717885794
119,sandnessjoen,66.0217,12.6316,50.52,64,61,12.3,NO,1717886183
120,hadibu,12.65,54.0333,83.34,78,75,16.8,YE,1717886184
121,midvagur,62.0511,-7.1939,47.23,87,75,18.41,FO,1717886185
122,bay harbor,30.1471,-85.6146,90.93,49,0,10.36,US,1717886187
123,longyearbyen,78.2186,15.6401,37.24,81,75,4.61,SJ,1717885934
124,bathsheba,13.2167,-59.5167,84.81,79,40,18.41,BB,1717886190
125,hermanus,-34.4187,19.2345,49.8,80,0,7.16,ZA,1717885940
126,talnakh,69.4865,88.3972,35.2,92,100,9.51,RU,1717885989
127,langarud,37.197,50.1535,77.05,75,98,4.79,IR,1717886194
128,east london,-33.0153,27.9116,57.18,75,24,8.81,ZA,1717885948
129,xining,36.6167,101.7667,51.26,79,85,2.51,CN,1717885963
130,tiksi,71.6872,128.8694,33.13,90,76,7.52,RU,1717885930
131,truth or consequences,33.1284,-107.2528,97.03,11,20,16.11,US,1717886199
132,nova sintra,14.8667,-24.7167,75.42,80,0,17.72,CV,1717886200
133,lazaro cardenas,17.9583,-102.2,84.13,61,17,12.3,MX,1717885967
134,znamenskoye,57.1281,73.8282,46.49,94,4,1.99,RU,1717886202
135,invercargill,-46.4,168.35,47.01,87,100,4.0,NZ,1717886203
136,dudinka,69.4058,86.1778,35.67,97,69,8.99,RU,1717885931
137,yazd,31.8972,54.3675,77.11,10,0,0.0,IR,1717886207
138,jamestown,42.097,-79.2353,69.53,45,0,9.22,US,1717886208
139,panacan,9.2463,118.4082,82.35,81,100,9.26,PH,1717886211
140,paranhos,-23.8928,-55.4311,72.1,47,37,6.76,BR,1717886212
141,kavaratti,10.5669,72.642,80.89,87,100,12.8,IN,1717886213
142,colonia,50.9333,6.95,57.85,75,75,6.91,DE,1717886214
143,plastun,44.7561,136.2939,50.65,99,100,3.38,RU,1717886216
144,port lincoln,-34.7333,135.8667,55.02,66,54,6.38,AU,1717886217
145,ndele,8.4109,20.6473,73.17,81,100,6.08,CF,1717886218
146,calamar,10.2511,-74.9146,83.14,81,83,7.78,CO,1717886221
147,porbandar,21.6422,69.6093,83.88,81,33,15.97,IN,1717886222
148,ushuaia,-54.8,-68.3,33.46,75,0,11.5,AR,1717886178
149,ajdabiya,30.7554,20.2263,73.2,67,0,8.77,LY,1717886224
150,nar'yan-mar,67.6713,53.087,35.11,86,77,5.99,RU,1717885988
151,robore,-18.3333,-59.75,76.66,39,22,4.63,BO,1717886227
152,tateyama,34.9833,139.8667,72.1,71,63,6.78,JP,1717886228
153,bereznik,62.8551,42.7072,49.39,93,59,5.14,RU,1717886229
154,lospalos,-8.5186,127.0025,70.05,85,71,6.78,TL,1717886231
155,yelizovo,53.1873,158.3805,55.54,54,75,8.95,RU,1717886233
156,vadso,70.0744,29.7487,38.28,93,100,12.66,NO,1717886234
157,ngama,11.7833,17.1667,91.44,34,95,5.53,TD,1717886235
158,anadyr,64.75,177.4833,36.1,100,75,11.18,RU,1717886237
159,acapulco de juarez,16.8634,-99.8901,85.82,70,100,5.75,MX,1717886238
160,rongelap,11.1635,166.8941,83.28,82,18,15.7,MH,1717886239
161,bredasdorp,-34.5322,20.0403,48.87,87,0,1.72,ZA,1717886240
162,thompson,55.7435,-97.8558,48.36,93,75,8.05,CA,1717886241
163,sorong,-0.8833,131.25,77.18,90,100,10.31,ID,1717886243
164,orchomenos,38.4929,22.9796,80.11,58,10,4.0,GR,1717886244
165,vikulovo,56.8167,70.6107,48.65,87,82,0.74,RU,1717886245
166,stjordalshalsen,63.4681,10.9262,53.6,62,40,8.05,NO,1717886246
167,mutoko,-17.397,32.2268,47.16,83,0,4.05,ZW,1717886248
168,goias,-15.5807,-49.6362,72.34,44,5,1.14,BR,1717886107
169,kempsey,-31.0833,152.8333,58.95,77,53,1.01,AU,1717886251
170,mount isa,-20.7333,139.5,55.17,67,0,5.75,AU,1717886254
171,kodiak,57.79,-152.4072,47.71,81,100,27.63,US,1717886255
172,palikir - national government center,6.9248,158.1611,81.45,94,100,3.44,FM,1717886256
173,prince rupert,54.3161,-130.3201,64.49,51,100,9.22,CA,1717886257
174,nayoro,44.3506,142.4578,66.45,72,98,5.28,JP,1717886258
175,sechura,-5.5569,-80.8222,74.01,61,16,13.82,PE,1717886003
176,puerto aysen,-45.4,-72.7,44.15,99,100,5.12,CL,1717886205
177,haiku-pauwela,20.9219,-156.3051,84.22,68,20,19.57,US,1717886262
178,bengkulu,-3.8004,102.2655,75.27,93,100,4.32,ID,1717886263
179,cockburn town,21.4612,-71.1419,82.26,85,99,9.06,TC,1717886264
180,la passe,45.5549,-0.8967,63.99,87,23,14.12,FR,1717886266
181,taunggyi,20.7833,97.0333,65.61,96,99,3.15,MM,1717886267
182,komsomol'sk,49.0097,33.6455,60.53,90,100,4.97,UA,1717886268
183,qujing,25.4833,103.7833,60.58,96,100,5.77,CN,1717886270
184,carnarvon,-24.8667,113.6333,74.98,66,97,18.88,AU,1717886272
185,tekeli,44.83,78.8239,61.9,46,49,9.22,KZ,1717886273
186,luanda,-8.8368,13.2343,73.4,83,52,3.44,AO,1717886272
187,el quebrachal,-25.2833,-64.0667,73.71,57,10,5.75,AR,1717886275
188,angicos,-5.6656,-36.6011,79.16,78,89,18.84,BR,1717886276
189,praya,14.9215,-23.5087,75.74,73,40,10.36,CV,1717886278
190,filey,54.21,-0.2892,51.78,67,6,4.0,GB,1717886279
191,aykhal,66.0,111.5,60.26,63,46,11.39,RU,1717885990
192,klyuchi,52.2667,79.1667,61.29,87,53,4.12,RU,1717886281
193,vilyuysk,63.7553,121.6247,62.01,45,1,1.99,RU,1717886282
194,stanley,54.868,-1.6985,48.72,75,40,17.27,GB,1717886284
195,harstad,68.799,16.5293,52.16,97,80,7.0,NO,1717886285
196,fort bragg,35.139,-79.006,89.44,34,0,9.22,US,1717886286
197,brookings,44.3114,-96.7984,74.44,40,0,13.8,US,1717886287
198,devin,41.7433,24.4,58.87,90,16,0.89,BG,1717886222
199,rio gallegos,-51.6226,-69.2181,33.85,93,40,1.14,AR,1717886247
200,queenstown,-31.8976,26.8753,44.76,72,10,2.75,ZA,1717886291
201,shakawe,-18.3667,21.85,52.21,39,17,6.44,BW,1717886292
202,cifteler,39.3831,31.0392,59.95,74,28,4.74,TR,1717886293
203,vilyuchinsk,52.9306,158.4028,55.67,70,100,8.79,RU,1717886294
204,dogubayazit,39.5469,44.0842,55.72,90,100,1.81,TR,1717886296
205,fort mcmurray,56.7268,-111.381,47.79,76,100,9.22,CA,1717886104
206,papatowai,-46.5619,169.4708,47.95,88,100,7.27,NZ,1717886298
207,al bahah,20.0129,41.4677,76.42,26,9,4.61,SA,1717886300
208,port augusta,-32.5,137.7667,52.47,58,30,5.01,AU,1717886301
209,san patricio,28.017,-97.5169,94.15,49,5,15.01,US,1717886302
210,yelets,52.6237,38.5017,59.13,80,100,5.48,RU,1717886113
211,kampene,-3.6,26.6667,65.3,51,86,1.57,CD,1717886304
212,ponta delgada,37.7333,-25.6667,65.19,88,20,8.05,PT,1717886306
213,madalena,41.2162,-8.3345,62.76,95,95,1.3,PT,1717886307
214,castelli,-25.9468,-60.6195,78.22,41,19,7.34,AR,1717886105
215,taradale,-39.5333,176.85,59.02,75,45,5.01,NZ,1717886309
216,mezzouna,34.5776,9.8419,77.61,51,67,6.64,TN,1717886310
217,ciechanow,52.8814,20.62,63.41,71,67,13.51,PL,1717886033
218,playa del ingles,27.7567,-15.5787,71.35,84,18,4.12,ES,1717886289
219,ciudad lazaro cardenas,17.9583,-102.2,84.13,61,17,12.3,MX,1717886314
220,takoradi,4.8845,-1.7554,78.6,86,46,8.95,GH,1717886315
221,mont-tremblant,46.1949,-74.6264,63.99,82,100,2.3,CA,1717886154
222,vorgashor,67.5833,63.95,29.8,93,100,4.65,RU,1717886318
223,umm kaddadah,13.6017,26.6876,82.96,45,98,7.92,SD,1717886319
224,saudarkrokur,65.7461,-19.6394,37.38,97,73,3.65,IS,1717886320
225,rawson,-43.3002,-65.1023,53.51,72,100,6.31,AR,1717886322
226,la'ie,21.6477,-157.9253,87.19,71,9,8.01,US,1717886323
227,ardesen,41.1911,40.9875,69.15,84,100,5.7,TR,1717886324
228,brokopondo,4.75,-55.1667,80.98,76,62,6.13,SR,1717886325
229,hamilton,39.1834,-84.5333,78.8,60,75,12.66,US,1717886071
230,yuzhno-kurilsk,44.0306,145.8556,52.38,98,100,9.53,RU,1717886329
231,noumea,-22.2763,166.4572,75.99,99,100,3.09,NC,1717886330
232,vila velha,-20.3297,-40.2925,75.15,83,75,4.61,BR,1717886183
233,lata,40.1629,-8.3327,56.46,98,39,1.14,PT,1717886332
234,sao pedro do sul,-29.6206,-54.1789,66.85,91,43,5.14,BR,1717886334
235,kalajoki,64.25,23.95,44.91,64,90,2.68,FI,1717886335
236,bilibino,68.0546,166.4372,50.25,35,0,7.2,RU,1717886336
237,broome,42.2506,-75.833,71.98,54,75,13.8,US,1717886337
238,susuman,62.7833,148.1667,40.17,51,100,8.66,RU,1717886339
239,hawaiian paradise park,19.5933,-154.9731,81.91,71,100,10.36,US,1717886340
240,ganshui,28.7422,106.7111,69.58,96,100,0.02,CN,1717886341
241,kaseda-shirakame,31.4167,130.3167,72.97,97,100,4.03,JP,1717886342
242,ust-nera,64.5667,143.2,45.25,42,98,5.84,RU,1717886344
243,seven pagodas,12.6264,80.1722,84.25,77,100,9.4,IN,1717886345
244,goondiwindi,-28.55,150.3167,54.73,67,79,6.96,AU,1717886346
245,decatur,39.8403,-88.9548,80.35,65,100,11.5,US,1717886307
246,tumayr,25.7039,45.868,86.5,15,0,9.53,SA,1717886349
247,charters towers,-20.1,146.2667,61.29,36,0,9.98,AU,1717886169
248,the pas,53.8251,-101.2541,50.02,81,100,8.05,CA,1717886166
249,unecha,52.8459,32.6739,51.98,98,4,7.7,RU,1717886352
250,batken,39.8333,71.0,53.35,46,34,7.87,KG,1717886353
251,mersing,2.4312,103.8405,75.11,100,20,5.75,MY,1717886355
252,albufeira,37.0882,-8.2503,67.84,84,17,4.14,PT,1717886356
253,zilair,52.2332,57.4392,56.39,98,95,2.84,RU,1717886357
254,hotan,37.0997,79.9269,67.48,41,100,4.74,CN,1717886358
255,saint-pierre,-21.3393,55.4781,69.48,73,75,6.91,RE,1717886359
256,enewetak,11.3474,162.3373,82.99,83,17,16.49,MH,1717886362
257,muncar,-8.4333,114.3333,75.83,96,98,0.89,ID,1717886363
258,prainha,-1.8,-53.48,75.63,95,68,3.4,BR,1717886364
259,south hedland,-20.4089,118.5983,55.33,76,1,8.05,AU,1717886366
260,magdagachi,53.45,125.8,60.78,38,100,1.72,RU,1717886367
261,mangrol,21.1167,70.1167,84.83,77,8,15.82,IN,1717886368
262,constantia,44.1833,28.65,65.08,67,10,3.04,RO,1717886156
263,acarau,-2.8856,-40.12,77.94,88,25,10.49,BR,1717886371
264,standerton,-26.9337,29.2415,39.61,81,2,4.32,ZA,1717886372
265,st. john's,47.5649,-52.7093,56.59,87,20,4.61,CA,1717886287
266,mossel bay,-34.1831,22.146,48.13,70,21,2.93,ZA,1717886375
267,mersrags,57.3354,23.1246,52.3,84,100,12.08,LV,1717886376
268,emerald,-23.5333,148.1667,58.8,53,22,7.23,AU,1717886377
269,mettuppalaiyam,11.1667,78.45,77.02,85,100,6.46,IN,1717886380
270,de aar,-30.6497,24.0123,46.54,62,5,3.51,ZA,1717886381
271,ulladulla,-35.35,150.4667,54.19,76,91,4.34,AU,1717886382
272,pimentel,-6.8367,-79.9342,70.09,73,0,19.57,PE,1717886384
273,east massapequa,40.6734,-73.4365,80.58,42,0,13.8,US,1717886385
274,lihue,21.9789,-159.3672,83.44,71,75,10.36,US,1717886386
275,bandarbeyla,9.4942,50.8122,81.25,73,30,22.15,SO,1717886387
276,happy valley-goose bay,53.3168,-60.3315,71.91,43,20,12.66,CA,1717886116
277,ilovlya,49.3033,43.9796,62.78,83,7,5.01,RU,1717886390
278,rundu,-17.9333,19.7667,52.81,32,14,6.93,NA,1717886391
279,simpang,-1.2667,104.0833,73.85,99,71,2.77,ID,1717886392
280,trincomalee,8.5711,81.2335,81.55,77,100,20.2,LK,1717886393
281,ixtapa,20.7,-105.2,86.23,70,20,13.8,MX,1717886394
282,forio,40.7342,13.8646,73.53,84,43,1.01,IT,1717886396
283,inhambane,-23.865,35.3833,66.45,69,91,13.78,MZ,1717886397
284,altai,46.3722,96.2583,55.99,35,68,4.09,MN,1717886398
285,utrik,11.2278,169.8474,82.99,81,71,15.17,MH,1717886399
286,luumaki,60.9262,27.5814,48.25,96,22,3.51,FI,1717886401
287,mogocha,53.7333,119.7667,58.89,38,14,2.15,RU,1717886112
288,santanyi,39.3546,3.1291,71.82,93,61,13.91,ES,1717886131
289,machala,-3.2667,-79.9667,80.55,74,100,6.91,EC,1717886399
290,le port,-20.9373,55.2919,69.8,80,46,4.32,RE,1717886407
291,myeik,12.4333,98.6,79.79,87,100,13.49,MM,1717886408
292,lompoc,34.6391,-120.4579,77.02,78,100,10.36,US,1717886409
293,malango,-2.9627,119.9001,68.38,97,98,1.72,ID,1717886410
294,iquitos,-3.7481,-73.2472,75.24,88,100,4.61,PE,1717886412
295,barcelos,41.5388,-8.6151,66.85,97,60,1.5,PT,1717886298
296,tolanaro,-25.0319,46.9987,69.87,68,75,16.11,MG,1717886414
297,huayacocotla,20.55,-98.4833,76.89,38,53,12.64,MX,1717886417
298,vila franca do campo,37.7167,-25.4333,64.89,99,70,6.69,PT,1717886418
299,pochaiv,50.0051,25.5118,54.66,87,21,7.43,UA,1717886419
300,guanica,17.9716,-66.908,87.13,79,100,11.92,PR,1717886421
301,twon-brass,4.3151,6.2418,79.9,84,99,16.08,NG,1717886422
302,iguatemi,-23.6803,-54.5611,70.61,53,45,6.46,BR,1717886423
303,sanctuary point,-35.1114,150.629,58.75,73,87,6.64,AU,1717886424
304,kulhudhuffushi,6.6221,73.07,82.74,79,90,15.55,MV,1717886426
305,ironwood,46.4547,-90.171,68.81,40,0,10.36,US,1717886427
306,kharp,66.8014,65.8081,32.72,88,36,5.5,RU,1717886428
307,mponela,-13.5319,33.7401,56.66,90,14,11.25,MW,1717886429
308,las palmas,28.4204,-14.0131,68.79,73,0,9.22,ES,1717886431
309,labrador city,52.9463,-66.9114,76.91,36,40,6.91,CA,1717886221
310,salekhard,66.53,66.6019,33.4,80,11,7.0,RU,1717886433
311,nadi,-17.8,177.4167,82.4,57,20,17.27,FJ,1717886434
312,solikamsk,59.6196,56.7729,55.27,74,100,3.98,RU,1717886435
313,merizo village,13.2658,144.6691,85.73,82,82,10.58,GU,1717886437
314,tura,25.5198,90.2201,75.58,96,2,7.25,IN,1717886410
315,danilovka,50.3557,44.1168,61.03,91,8,5.73,RU,1717886440
316,malpica,43.3228,-8.8105,59.38,79,96,15.57,ES,1717886442
317,usinsk,65.9939,57.5281,37.08,85,15,11.01,RU,1717886444
318,puerto ayacucho,5.6639,-67.6236,75.22,96,99,3.83,VE,1717886445
319,betare oya,5.6,14.0833,67.03,97,96,3.69,CM,1717886446
320,knyaze-volkonskoye,48.4642,135.4567,54.0,98,100,7.0,RU,1717886448
321,banjarmasin,-3.3244,114.591,77.14,93,95,2.01,ID,1717886427
322,kayangel,8.0823,134.7173,84.7,74,100,14.83,PW,1717886450
323,isabela,6.7085,121.9711,78.85,85,99,3.62,PH,1717886451
324,port isabel,26.0734,-97.2086,93.27,72,0,18.41,US,1717886452
325,kailua-kona,19.6406,-155.9956,87.6,84,20,12.66,US,1717886454
326,chibougamau,49.9168,-74.3659,60.42,88,100,0.0,CA,1717886455
327,alegrete,-29.7831,-55.7919,67.78,90,69,8.41,BR,1717886381
328,kidal,18.4411,1.4078,91.2,33,51,15.21,ML,1717886457
329,pimenta bueno,-11.6725,-61.1936,75.81,55,0,4.03,BR,1717886458
330,farkhar,36.5729,69.8578,62.1,45,0,7.0,AF,1717886460
331,prineville,44.2999,-120.8345,85.5,29,40,10.36,US,1717886461
332,visakhapatnam,17.69,83.2093,84.09,89,40,10.36,IN,1717886166
333,sept-iles,50.2001,-66.3821,63.12,68,20,13.8,CA,1717886222
334,villa gesell,-37.2639,-56.973,57.06,98,100,11.18,AR,1717886344
335,bel ombre,-4.6167,55.4167,82.24,74,20,6.91,SC,1717886466
336,san pedro pochutla,15.7333,-96.4667,80.87,79,100,0.47,MX,1717886467
337,huarmey,-10.0681,-78.1522,67.6,80,24,9.57,PE,1717886468
338,tromso,69.6496,18.957,46.42,87,40,3.44,NO,1717886469
339,bubaque,11.2833,-15.8333,79.7,77,90,7.09,GW,1717886471
340,kill devil hills,36.0307,-75.676,82.42,50,0,8.05,US,1717886472
341,meadow lakes,61.6247,-149.6011,72.1,60,0,0.0,US,1717886473
342,sidney,-33.8679,151.2073,55.31,83,0,8.05,AU,1717886261
343,wailua homesteads,22.0669,-159.378,82.83,77,75,10.36,US,1717886475
344,hilo,19.7297,-155.09,82.13,74,100,10.36,US,1717886333
345,phongsali,21.6833,102.1058,66.78,100,100,0.11,LA,1717886479
346,vryburg,-26.9566,24.7284,47.23,47,0,6.11,ZA,1717886480
347,richmond,37.5538,-77.4603,85.05,44,40,11.5,US,1717885690
348,santarem,-2.4431,-54.7083,80.73,89,75,2.3,BR,1717886341
349,lichinga,-13.3128,35.2406,59.09,88,40,16.11,MZ,1717886484
350,arawa,-6.2132,155.5367,85.33,74,100,3.27,PG,1717886485
351,alice springs,-23.7,133.8833,38.75,93,0,6.91,AU,1717886486
352,bardai,11.65,7.2333,82.17,59,95,3.22,NG,1717886488
353,kapa'a,22.0752,-159.319,84.18,77,75,10.36,US,1717886490
354,gulf shores,30.246,-87.7008,90.43,60,0,8.05,US,1717886492
355,kaya,13.0917,-1.0844,93.29,31,29,5.06,BF,1717886493
356,kichmengskiy gorodok,59.9816,45.7854,54.95,96,2,4.0,RU,1717886494
357,tofol,5.3248,163.0078,84.29,77,91,13.47,FM,1717886495
358,formosa do rio preto,-11.0483,-45.1931,73.38,38,0,3.85,BR,1717886497
359,leava,-14.3,-178.1667,81.39,76,86,24.02,WF,1717886500
360,dongola,19.1667,30.4833,94.15,11,15,10.25,SD,1717886501
361,coruripe,-10.1256,-36.1756,75.45,89,4,8.21,BR,1717886503
362,khash,28.2211,61.2158,72.86,45,3,0.29,IR,1717886504
363,manggar,-2.8833,108.2667,82.2,80,67,7.34,ID,1717886505
364,mirny,62.5353,113.9611,52.38,70,8,5.26,RU,1717886506
365,badger,64.8,-147.5333,80.51,23,0,16.11,US,1717886507
366,carolina beach,34.0352,-77.8936,84.27,65,2,1.01,US,1717886241
367,horta,38.5333,-28.6333,67.01,88,9,11.01,PT,1717886510
368,sakaiminato,35.55,133.2333,67.98,77,75,13.8,JP,1717886511
369,bafata,12.1667,-14.75,79.14,70,100,4.83,GW,1717886512
370,keflavik,64.0049,-22.5624,48.11,76,0,11.5,IS,1717886514
371,pukchil-lodongjagu,40.2019,125.7483,60.57,89,50,2.42,KP,1717886515
372,severo-yeniseyskiy,60.3725,93.0408,52.57,70,100,8.99,RU,1717886516
373,pisco,-13.7,-76.2167,66.25,82,40,8.05,PE,1717886517
374,saldanha,-33.0117,17.9442,51.85,70,29,8.25,ZA,1717886518
375,calgary,51.0501,-114.0853,50.36,53,75,19.57,CA,1717886315
376,muntok,-2.0667,105.1833,79.21,87,95,6.76,ID,1717886521
377,flin flon,54.7682,-101.865,49.84,71,100,9.22,CA,1717886522
378,ejirin,6.6142,3.9002,76.71,94,91,4.03,NG,1717886523
379,nagua,19.3832,-69.8474,87.85,74,40,11.5,DO,1717886524
380,san antonio de pale,-1.4014,5.6325,76.5,79,10,10.69,GQ,1717886526
381,alappuzha,9.49,76.3264,79.38,84,100,5.82,IN,1717886527
382,kristiansund,63.1115,7.732,48.85,87,75,4.61,NO,1717886528
383,laguna,38.421,-121.4238,89.55,44,0,11.5,US,1717886529
384,watampone,-4.5386,120.3279,77.4,90,61,3.67,ID,1717886531
385,anloga,5.7947,0.8973,80.83,81,94,15.32,GH,1717886532
386,coahuayana de hidalgo,18.7,-103.6583,85.64,56,44,5.68,MX,1717886533
387,eregli,37.5133,34.0467,61.68,67,72,1.74,TR,1717886534
388,sao paulo de olivenca,-3.3783,-68.8725,79.25,77,37,2.39,BR,1717886535
389,santa terezinha,-29.9002,-50.0904,63.86,93,70,11.21,BR,1717886537
390,graaff-reinet,-32.2522,24.5308,49.17,55,33,2.89,ZA,1717886538
391,port saint john's,-31.6229,29.5448,57.52,79,2,6.89,ZA,1717886539
392,mao,39.8885,4.2658,70.36,100,40,17.27,ES,1717886477
393,estevan,49.1334,-102.9842,71.8,26,75,20.71,CA,1717886541
394,sinabang,2.4803,96.3801,79.05,83,97,3.87,ID,1717886543
395,nagqu,31.5,92.0,38.57,87,14,6.2,CN,1717886544
396,solwezi,-12.1688,26.3894,54.9,53,14,4.79,ZM,1717886545
397,galliano,29.4422,-90.2992,93.99,62,40,0.0,US,1717886387
398,carroll,39.5501,-77.0164,82.71,38,29,4.0,US,1717886466
399,kerikeri,-35.2268,173.9474,63.91,95,100,11.01,NZ,1717886550
400,katabu,-4.9333,122.5167,76.78,91,72,5.68,ID,1717886551
401,buckhannon,38.994,-80.232,74.28,57,93,5.75,US,1717886552
402,ghanzi,-21.5667,21.7833,48.18,56,0,8.43,BW,1717886554
403,karratha,-20.7377,116.8463,63.23,61,0,10.87,AU,1717886289
404,cafayate,-26.073,-65.9761,70.88,22,42,7.25,AR,1717886428
405,santyoku,37.4406,129.1708,69.64,76,100,3.11,KR,1717886559
406,kargasok,59.0556,80.8572,49.96,95,96,13.0,RU,1717886561
407,lethem,3.3803,-59.7968,78.64,85,58,4.23,GY,1717886562
408,darwin,-12.4611,130.8418,65.95,61,0,9.22,AU,1717886566
409,suwayr,30.1171,40.3893,88.74,15,6,5.99,SA,1717886567
410,chonchi,-42.6128,-73.8092,54.61,90,100,10.94,CL,1717886568
411,gaitania,3.0906,-75.6723,77.2,93,100,3.18,CO,1717886569
412,kudahuvadhoo,2.6708,72.8944,83.23,74,93,11.86,MV,1717886571
413,kirakira,-10.4544,161.9205,83.32,82,100,11.07,SB,1717886572
414,iquique,-20.2208,-70.1431,64.44,80,47,7.27,CL,1717886452
415,santana,-0.0583,-51.1817,82.58,83,20,2.3,BR,1717886574
416,atafu village,-8.5421,-172.5159,84.61,72,98,9.1,TK,1717886576
417,jamaame,0.0697,42.745,77.72,81,50,11.88,SO,1717886396
418,sevnica,46.0078,15.3156,69.19,85,100,4.59,SI,1717886578
419,benjamin constant,-4.3831,-70.0311,75.33,94,75,4.61,BR,1717886579
420,hun,29.1268,15.9477,82.87,15,0,4.94,LY,1717886580
421,lusambo,-4.9667,23.45,67.51,47,3,2.04,CD,1717886582
422,nouadhibou,20.931,-17.0347,69.78,83,0,20.71,MR,1717886583
423,simanggang,1.2472,111.4528,75.18,100,100,2.3,MY,1717886584
424,natal,-5.795,-35.2094,79.45,83,20,9.22,BR,1717886345
425,vershino-darasunskiy,52.35,115.5167,47.73,78,100,2.08,RU,1717886587
426,khilok,51.3674,110.4676,59.5,65,100,2.28,RU,1717886588
427,hithadhoo,-0.6,73.0833,83.05,74,54,8.79,MV,1717886589
428,sabha,27.0377,14.4283,81.39,12,0,8.99,LY,1717886590
429,nadym,65.5333,72.5167,42.96,74,5,7.99,RU,1717886592
430,durban,-29.8579,31.0292,49.12,74,64,6.49,ZA,1717886408
431,battambang,13.1027,103.1982,79.83,80,99,7.38,KH,1717886594
432,lionel town,17.8101,-77.2406,87.69,87,100,7.07,JM,1717886595
433,laguna de perlas,12.3429,-83.6712,87.89,77,100,5.46,NI,1717886596
434,howard springs,-12.497,131.047,65.88,80,1,7.76,AU,1717886598
435,swakopmund,-22.6833,14.5333,76.05,30,30,9.8,NA,1717886599
436,kapuskasing,49.4169,-82.4331,66.2,52,75,9.22,CA,1717886600
437,kourou,5.1552,-52.6478,82.45,86,76,4.43,GF,1717886601
438,galle,6.0367,80.217,83.93,82,91,14.18,LK,1717886603
439,ad dilam,23.9915,47.1627,95.41,18,0,8.08,SA,1717886604
440,nacogdoches,31.6002,-94.6335,95.77,56,0,5.75,US,1717886605
441,auriflama,-20.6856,-50.5547,72.16,43,23,4.7,BR,1717886606
442,derby,52.9228,-1.4766,50.16,73,0,8.05,GB,1717886607
443,antalaha,-14.9003,50.2788,70.77,81,32,6.69,MG,1717886609
444,luganville,-15.5333,167.1667,79.95,79,97,5.95,VU,1717886610
445,paita,-5.0892,-81.1144,69.35,77,9,13.89,PE,1717886611
446,samarinda,-0.5,117.15,75.25,97,99,1.59,ID,1717886612
447,port douglas,-16.4833,145.4667,69.73,53,0,2.89,AU,1717886613
448,argo,37.6333,22.7333,74.84,56,9,2.48,GR,1717886615
449,johnstown,40.3267,-78.922,76.95,49,20,10.36,US,1717886495
450,miranda,3.2499,-76.2281,78.93,83,99,3.22,CO,1717886617
451,chernyshevskiy,63.0128,112.4714,52.3,67,1,4.81,RU,1717886618
452,papao,-17.75,-149.55,78.48,78,97,3.67,PF,1717886619
453,kroya,-7.6331,109.2461,81.43,90,100,6.46,ID,1717886621
454,agat village,13.3886,144.6585,86.11,83,20,9.22,GU,1717886622
455,fortuna,40.5982,-124.1573,71.92,69,0,13.8,US,1717886623
456,nuku'alofa,-21.1333,-175.2,75.54,73,20,13.8,TO,1717886624
457,morant bay,17.8815,-76.4093,87.42,90,100,9.28,JM,1717886403
458,makarska,43.2969,17.0178,72.39,68,43,2.64,HR,1717886627
459,padang,-0.9492,100.3543,78.85,88,98,3.18,ID,1717886628
460,angaur state,6.906,134.13,82.15,79,100,10.71,PW,1717886629
461,mel'nikovo,56.5558,84.085,52.47,91,100,9.69,RU,1717886630
462,katsuura,35.1333,140.3,71.17,70,60,7.54,JP,1717886546
463,lockwood,45.8191,-108.4149,81.41,33,20,6.91,US,1717886421
464,parnarama,-5.6817,-43.0933,77.99,70,54,2.71,BR,1717886634
465,urengoy,65.9667,78.3667,45.9,66,2,5.39,RU,1717886635
466,cooma,-36.2333,149.1333,43.83,85,65,1.39,AU,1717886637
467,pathein,16.7833,94.7333,79.39,89,83,6.29,MM,1717886638
468,cherryville,53.1569,-6.9667,49.91,92,7,7.25,IE,1717886639
469,shama junction,5.0087,-1.6301,78.1,88,49,8.14,GH,1717886640
470,quelimane,-17.8786,36.8883,68.88,90,67,11.61,MZ,1717886641
471,nikel,69.4128,30.222,37.58,88,100,10.69,RU,1717886643
472,tabuk,17.4189,121.4443,78.39,88,97,4.05,PH,1717886644
473,carauari,-4.8828,-66.8958,81.97,67,67,1.86,BR,1717886596
474,piranhas,-16.4269,-51.8222,75.24,43,20,2.26,BR,1717886646
475,kasempa,-13.4584,25.8338,61.29,46,47,10.36,ZM,1717886647
476,turan,16.0678,108.2208,82.38,83,20,3.44,VN,1717886649
477,iaciara,-14.0958,-46.6317,74.16,43,1,5.64,BR,1717886650
478,champerico,14.3,-91.9167,90.14,83,100,8.57,GT,1717886651
479,paramonga,-10.6667,-77.8333,65.98,83,11,9.13,PE,1717886652
480,svislach,53.6404,27.9199,44.85,80,10,2.06,BY,1717886654
481,island harbour,50.724,-1.2758,55.33,81,4,1.99,GB,1717886655
482,betong,5.7743,101.0723,70.99,99,94,0.85,TH,1717886656
483,buritizeiro,-17.3511,-44.9622,70.2,48,0,3.49,BR,1717886366
484,pandan,14.0453,124.1694,83.82,77,92,3.09,PH,1717886658
485,cannonvale,-20.2833,148.7,65.59,52,0,6.17,AU,1717886660
486,kobylka,52.3395,21.1959,67.06,55,56,11.05,PL,1717886661
487,kuanda,56.3161,116.0806,51.78,78,76,1.19,RU,1717886662
488,masterton,-40.9597,175.6575,59.88,71,95,7.16,NZ,1717886663
489,newman,37.3138,-121.0208,87.03,41,87,5.99,US,1717886661
490,buncrana,55.1333,-7.45,48.81,82,100,16.24,IE,1717886666
491,kismayo,-0.3582,42.5454,78.91,80,31,16.96,SO,1717886667
492,duba,27.3513,35.6901,83.21,65,0,2.59,SA,1717886668
493,urucui,-7.2294,-44.5561,78.87,59,53,5.17,BR,1717886669
494,nishinoomote,30.7333,131.0,77.41,92,93,5.32,JP,1717886671
495,buga,3.9009,-76.2978,80.31,86,63,2.62,CO,1717886519
496,eshowe,-28.8865,31.4699,48.25,84,2,4.74,ZA,1717886674
497,sydney mines,46.2367,-60.2177,61.14,80,75,11.5,CA,1717886675
498,lamu,-2.2717,40.902,78.85,75,74,16.73,KE,1717886677
499,santiago de cao,-7.9589,-79.2392,64.53,88,20,10.36,PE,1717886678
500,sitangkai,4.6628,119.3928,81.1,82,100,14.45,PH,1717886680
501,cidreira,-30.1811,-50.2056,63.88,90,81,11.27,BR,1717886651
502,grand falls-windsor,48.9332,-55.6649,58.5,82,81,3.0,CA,1717886683
503,el matama,16.7095,33.3565,94.41,31,76,24.18,SD,1717886684
504,urangan,-25.3,152.9,60.21,74,0,8.99,AU,1717886685
505,axim,4.8699,-2.2405,78.64,85,50,8.52,GH,1717886687
506,fort st. john,56.2499,-120.8529,49.89,62,100,8.05,CA,1717886689
507,muravlenko,63.7898,74.523,52.56,49,2,9.19,RU,1717886691
508,krylovskaya,46.3194,39.9711,66.92,77,87,6.93,RU,1717886692
509,camarinas,43.1311,-9.1817,57.92,83,74,21.16,ES,1717886693
510,namibe,-15.1961,12.1522,67.6,76,0,3.42,AO,1717886695
511,santa elena de uairen,4.6167,-61.1333,68.05,91,96,2.91,VE,1717886696
512,xi'an,34.2583,108.9286,59.81,46,100,3.6,CN,1717886607
513,khorugh,37.4897,71.553,48.27,69,100,1.81,TJ,1717886698
514,castillos,-34.1667,-53.8333,61.92,98,100,5.12,UY,1717886701
515,ciudad bolivar,8.1222,-63.5497,88.43,55,98,0.67,VE,1717886702
516,bandundu,-3.3167,17.3667,77.94,68,83,2.55,CD,1717886703
517,okha,53.5739,142.9478,40.24,90,87,1.99,RU,1717886705
518,aral,40.5156,81.2636,73.51,29,91,1.39,CN,1717886706
519,monze,-16.2833,27.4833,59.56,58,1,9.06,ZM,1717886707
520,labytnangi,66.6572,66.4183,33.39,80,17,4.59,RU,1717886708
521,antonio enes,-16.2325,39.9086,74.79,81,57,17.94,MZ,1717886710
522,crane,31.3974,-102.3501,100.42,20,77,25.95,US,1717886711
523,cestos city,5.46,-9.5828,79.52,85,75,7.99,LR,1717886712
524,uttaradit,17.6667,100.5,75.02,96,100,1.9,TH,1717886713
525,tabou,4.423,-7.3528,78.39,84,71,7.05,CI,1717886714
526,arco,45.9177,10.8867,72.93,92,100,2.44,IT,1717886716
527,hereford,52.0568,-2.7148,49.21,77,3,4.21,GB,1717886717
528,porto velho,-8.7619,-63.9039,84.25,58,20,1.14,BR,1717886506
529,san vicente de canete,-13.0751,-76.3835,61.65,91,27,7.9,PE,1717886719
530,langfang,39.5097,116.6947,77.67,49,39,6.13,CN,1717886720
531,tuburan,6.6439,122.2736,78.89,76,99,4.34,PH,1717886722
532,salies-de-bearn,43.4742,-0.9245,67.78,99,100,10.29,FR,1717886723
533,puerto madryn,-42.7692,-65.0385,56.12,73,100,6.91,AR,1717886443
534,arteche,12.2645,125.4048,82.4,81,100,3.4,PH,1717886725
535,jingzhou,30.3503,112.1903,70.09,89,100,1.92,CN,1717886726
536,hirna,9.2167,41.1,62.35,85,61,10.51,ET,1717886728
537,beyneu,45.3167,55.2,76.19,46,0,11.54,KZ,1717886729
538,cidade velha,14.9167,-23.6167,75.67,73,40,10.36,CV,1717886731
539,bangor trident base,47.7227,-122.7145,82.98,47,100,1.99,US,1717886733
540,tarawa,1.419,172.984,84.29,77,40,4.61,KI,1717886734
541,inirida,3.8653,-67.9239,73.87,99,99,2.77,CO,1717886735
542,xilin hot,43.9667,116.0333,61.66,32,3,2.42,CN,1717886582
543,mount pearl,47.5166,-52.7813,55.74,87,20,4.61,CA,1717886737
544,nishon tumani,38.694,65.6751,75.45,38,0,2.3,UZ,1717886739
545,chertkovo,49.3847,40.1547,62.78,66,79,3.83,RU,1717886741
546,syzran',53.1585,48.4681,59.25,94,1,5.57,RU,1717886742
547,shimoda,34.6667,138.95,67.1,75,92,2.77,JP,1717886743
548,beloyarskiy,63.7119,66.6722,43.0,75,3,5.99,RU,1717886745
549,bayan,46.0833,127.4,60.4,86,100,5.84,CN,1717886746
550,gao,16.6362,1.637,89.26,33,73,9.66,ML,1717886748
551,carutapera,-1.195,-46.02,77.16,91,28,7.07,BR,1717886749
552,male,4.1748,73.5089,84.15,84,75,11.5,MV,1717886642
553,kruisfontein,-34.0033,24.7314,51.64,78,81,4.81,ZA,1717886752
554,manokwari,-0.8667,134.0833,81.0,79,82,3.62,ID,1717886753
555,uttar char fasson,22.2332,90.7132,84.11,84,59,10.31,BD,1717886754
556,zarghun shahr,32.8473,68.4457,62.73,37,16,0.67,AF,1717886755
557,dwarka,22.2394,68.9678,83.37,83,3,17.58,IN,1717886757
558,yarmouth,41.7057,-70.2286,74.14,67,100,13.8,US,1717886758
559,joao pinheiro,-17.7425,-46.1725,68.58,54,0,6.44,BR,1717886504
560,praia da vitoria,38.7333,-27.0667,66.76,88,20,10.83,PT,1717886760
561,peniche,39.3558,-9.3811,62.29,95,3,2.28,PT,1717886761
562,lorengau,-2.0226,147.2712,84.51,74,23,6.35,PG,1717886694
563,huntsville,34.7304,-86.5861,85.91,48,0,8.05,US,1717886537
